altitude,desired_yaw,distance,fl,fr,pitch,pitch_dist,pitch_input,pitch_rate,rl,roll,roll_dist,roll_input,roll_rate,rr,t,target_altitude,v_fwd,v_left,vertical_input,vx,vy,vz,x,y,yaw,yaw_err,yaw_input,yaw_rate
0.06243464668848189,-2.5460229742973737e-08,0.0,67.70919093336342,67.70934439426294,-0.06187942967896694,-0.0,-3.790732336186826,-1.934349445817818,75.29065524519028,9.468965862933445e-07,0.0,7.691072314568783e-05,2.956589383102061e-05,75.29080942718336,0.032,2.0,0.0,0.0,3.0,0.0,0.0,0.0,-22.894478447096347,-6.866807794411309e-08,-2.5460229742973737e-08,0.0,-1.8027339600549862e-07,1.2018226400366574e-07
0.06463073039006412,-2.5460229742973737e-08,0.0014841433208556245,70.79581869927044,70.79605640695381,-0.038609832414858374,0.07016287545076182,-0.36092436851564746,0.7272077284793419,71.51767433339516,1.755206673035689e-06,2.44748899411968e-06,0.00011540529497814229,2.5197472332238168e-05,71.5178982468917,0.064,2.0,0.046379478748520504,-1.6178536449759916e-06,2.6568619216277773,0.04637947874841508,-1.6208729394640915e-06,0.0686276156744445,-22.892994303776398,-1.2053601200696402e-07,-6.509979347707995e-08,3.9639563734106216e-08,3.4485467136525098e-06,-2.219752014966794e-06
0.06329868995768526,-2.5460229742973737e-08,0.0007537956222857231,68.45571246161792,68.45597710549164,-0.07107836318199,-0.10520490594383809,-3.2522865340044143,-1.014730732600876,74.96028772599736,2.2726184480188825e-06,1.5628268967717038e-06,0.00013122375154688159,1.6030002249165756e-05,74.96054797712985,0.096,2.0,-0.06993559179787205,-1.0194120671442942e-06,3.208131317559197,-0.06993559179802045,-1.0091804945124297e-06,-0.04162626351183942,-22.895232242713934,-1.5282978783136177e-07,-1.4629993639611812e-07,1.208397066531444e-07,1.0981853027311705e-06,-4.904441218478248e-07
0.06445277844505679,-2.5460229742973737e-08,2.4718231090300957e-05,69.95263790701424,69.95287896748138,-0.059177488850287126,0.03650271658014992,-1.3669152366003883,0.37190671232807554,72.68647308284622,2.3264991074599087e-06,1.9903741324022294e-07,0.00011817891797689086,1.6549251906552068e-06,72.68670473805096,0.128,2.0,0.024328552900039303,-1.092836732165747e-07,2.8196736738481984,0.02432855290002145,-1.1318798353245143e-07,0.0360652652303603,-22.894453729021134,-1.5645180330440022e-07,-1.6048263667469755e-07,1.3502240693172382e-07,2.3513156036752223e-06,-1.297498921920034e-06
0.06210987761307153,-2.5460229742973737e-08,0.0030431404017192513,67.19113095611266,67.19144302402802,-0.1041441280675321,-0.1450231221692675,-4.674791264927349,-1.4054443007321185,76.54071729665043,2.7811162417905095e-06,1.2189706926093382e-06,0.00015412861614391062,1.3853833361775813e-05,76.54102174319965,0.16,2.0,-0.09587057733961088,-7.825622407899292e-07,3.3660782549976958,-0.0958705773398405,-7.539054711518405e-07,-0.07321565099953917,-22.89752158749601,-1.8057677838125912e-07,-2.9891099473137327e-07,2.7345076498839954e-07,1.905341527555296e-06,-7.233261550600648e-07
0.06358720838782966,-2.5460229742973737e-08,0.0016971195875963706,69.3948139594048,69.39509548355885,-0.08475348917867416,0.062415877900965124,-1.87421234496222,0.6059764524970398,73.14324634522772,2.755562953915053e-06,-3.5141052703958687e-08,0.00013691412778482197,-8.288788582267187e-07,73.14351247758479,0.192,2.0,0.04206315048969848,5.306776460179049e-08,2.7691670664440418,0.042063150489712875,4.0061637834962104e-08,0.04616658671119161,-22.896175566680338,-1.7929480597054033e-07,-3.092047698617189e-07,2.8374454011874515e-07,3.847949238650194e-06,-1.997810412195972e-06
0.06399166090533921,-2.5460229742973737e-08,0.0014951832794541735,69.08607469564808,69.08642550933334,-0.08176275084743621,0.008867691264055908,-2.3505541916484343,0.09346064251059674,73.78718943664683,3.164470746530602e-06,1.326072830352461e-06,0.00017222799168196412,1.267838152508155e-05,73.7875275349283,0.224,2.0,0.006310509715518766,-8.471616328042705e-07,2.936804294139133,0.006310509715223844,-8.493556635788066e-07,0.012639141172173397,-22.89597363036945,-2.0647418720506214e-07,-3.476788521839893e-07,3.2221862244101555e-07,3.1788509515695105e-06,-1.4747967228309758e-06
0.06430950399822544,-2.5460229742973737e-08,0.0013388450402217942,69.1467327790646,69.14711829495026,-0.07943331091823289,0.0067928171175681085,-2.303411479729086,0.07279503070033287,73.75356228499156,3.5353531114540286e-06,1.2251825946514836e-06,0.00018948470843742167,1.1491870270068748e-05,73.75393470793968,0.256,2.0,0.004885570086454382,-7.732871955209248e-07,2.9503370167365275,0.004885570086154978,-7.751764995050783e-07,0.009932596652694522,-22.895817292126694,-2.3127983518922465e-07,-3.867110594625675e-07,3.6125082971959374e-07,3.2732343787029605e-06,-1.4596545930294527e-06
0.06456350382611452,-2.5460229742973737e-08,0.0012143556865680802,69.19660572065439,69.19701963085944,-0.07756964131522869,0.005349696375209003,-2.263499851135425,0.05823969194622661,73.72361180339558,3.855429933751255e-06,1.0788658435607267e-06,0.0002037648673505531,9.914504819429615e-06,73.72401295265993,0.288,2.0,0.0038902924294818403,-6.700124500408214e-07,2.960312526892331,0.003890292429198361,-6.716563995567476e-07,0.007937494621533796,-22.89569280276896,-2.5277283997504057e-07,-4.2257736295808185e-07,3.971171332151081e-07,3.190235175496803e-06,-1.3325891839009856e-06
0.06476656406986628,-2.5460229742973737e-08,0.0011151215877981523,69.23652637324027,69.23696482128555,-0.07607809125470748,0.004205549962332876,-2.23152623965087,0.04661094802802153,73.6995851144843,4.131719350871202e-06,9.531069745216293e-07,0.00021609305150747485,8.553976989393133e-06,73.70001103864503,0.32,2.0,0.003101065726694981,-5.812027961962679e-07,2.9682718369137877,0.0031010657264296526,-5.826167618185701e-07,0.006345632617242494,-22.895593568665713,-2.714165763532348e-07,-4.5596119108045574e-07,4.30500961337482e-07,3.130971132894181e-06,-1.2263121659211566e-06
0.0649289662768481,-2.5460229742973737e-08,0.001035970787112623,69.26847044388671,69.26893048486923,-0.07488425065495873,0.003295805698861749,-2.205924190781113,0.037307523168786744,73.68032501430491,4.372489313963022e-06,8.516781101665425e-07,0.0002269260632774438,7.449919469126145e-06,73.6807726775755,0.352,2.0,0.002473462669598616,-5.092287786390997e-07,2.9746246551590896,0.0024734626693501127,-5.104344018848092e-07,0.005075068968182078,-22.895514417860294,-2.877504772135487e-07,-4.874232631801439e-07,4.6196303343717015e-07,3.0944279833740412e-06,-1.1390259220416874e-06
0.06505890981920154,-2.5460229742973737e-08,0.0009728091750494014,69.29403504604068,69.29451430090242,-0.07392858874133583,0.002571577135289895,-2.1854216480357316,0.029864437069053444,73.66488449944316,4.584475637929953e-06,7.700930033842856e-07,0.00023654876536443158,6.554890464549648e-06,73.66535143964285,0.384,2.0,0.0019738005293650418,-4.509820407359459e-07,2.979696321507276,0.001973800529131431,-4.5200332295826463e-07,0.004060735698544794,-22.895451256243362,-3.022145835482132e-07,-5.174191653032294e-07,4.919589355602557e-07,3.0786655212995198e-06,-1.0685258097458353e-06
0.06516293702964429,-2.5460229742973737e-08,0.000922388974302438,69.31449758330545,69.3149941291325,-0.07316347400884518,0.001994491563669468,-2.168999892149339,0.02390983655234652,73.65250353034547,4.7731462827740145e-06,7.046308005656452e-07,0.00024519154285258956,5.82959791332317e-06,73.65298775068986,0.416,2.0,0.0015756314267744778,-4.038865764763736e-07,2.9837457483683196,0.001575631426553592,-4.047473729806795e-07,0.003250850326336034,-22.895400836037712,-3.151664994835949e-07,-5.463184408096907e-07,5.20858211066717e-07,3.0813706573456907e-06,-1.0125306827636931e-06
0.0652462589330944,-2.5460229742973737e-08,0.0008820209871845676,69.33090677838686,69.33141829080793,-0.07255047220577544,0.001539441241067484,-2.155818417988526,0.019156306943669574,73.6425482763259,4.94738542003755e-06,6.397340328960293e-07,0.00025342522954582635,5.4162245110528426e-06,73.643050464823,0.448,2.0,0.0012614997471962481,-3.575677116474274e-07,2.9869809525859212,0.0012614997469961864,-3.582728350703039e-07,0.002603809482815741,-22.89536046804581,-3.2663123020584465e-07,-5.589564520322583e-07,5.334962222892845e-07,2.3309809941559088e-06,-4.869948848587036e-07
0.06531305398428974,-2.5460229742973737e-08,0.0008496855618734922,69.34404509682068,69.34457114068965,-0.0720593185355809,0.0011758490717582407,-2.145255154495563,0.01534855250010563,73.63456001323769,5.104715642993593e-06,5.925286724763554e-07,0.0002607182215454588,4.88991072330281e-06,73.63507684225488,0.48,2.0,0.0010104821863325675,-3.2333556376194894e-07,2.989563273250727,0.0010104821861478541,-3.239123117349999e-07,0.0020873453498546253,-22.89532813261585,-3.3699642418136464e-07,-5.707651069009423e-07,5.453048771579686e-07,2.303712947384632e-06,-4.451988772738176e-07
0.06536665816793931,-2.5460229742973737e-08,0.0008237804575723424,69.35456580629945,69.35510528106347,-0.07166575178492739,0.0008847898100055976,-2.1367888026232995,0.012298961114516761,73.62814798822079,5.248507578082836e-06,5.552834612880512e-07,0.0002674490446428664,4.468382277436547e-06,73.62867830963533,0.512,2.0,0.000809534649487708,-2.9597721448148337e-07,2.9916243463047554,0.0008095346493153244,-2.964483301504029e-07,0.0016751307390489543,-22.895302227507074,-3.4648277074617753e-07,-5.819586218673125e-07,5.564983921243388e-07,2.288337377006938e-06,-4.1256146708928125e-07
0.06540973437196126,-2.5460229742973737e-08,0.0008030202311555349,69.3629946338922,69.36354665921549,-0.07135029171705579,0.0006519277430707243,-2.1299986965677307,0.00985812720087192,73.6229965922784,5.381463018253493e-06,5.26014720746671e-07,0.0002737300362766851,4.13087064326375e-06,73.62353948710019,0.544,2.0,0.0006487572100049528,-2.7412317631122754e-07,2.9932693431215696,0.0006487572098423655,-2.745076959744604e-07,0.0013461313756860972,-22.89528146727636,-3.5526701701736027e-07,-5.927019497449344e-07,5.672417200019607e-07,2.2826253740066525e-06,-3.8726680933384715e-07
0.06544440927961998,-2.5460229742973737e-08,0.0007863747563239067,69.36975176460088,69.37031563602874,-0.07109731703686022,0.0004657069458634707,-2.124548345363519,0.00790545879642398,73.6188530248751,5.505744124749442e-06,5.031238719337828e-07,0.0002796509403407405,3.860610231334626e-06,73.6194077572086,0.576,2.0,0.0005201712174768502,-2.5667012719493883e-07,2.9945820456783263,0.0005201712173219519,-2.569838542710868e-07,0.0010835908643347034,-22.895264821797404,-3.6349050035403504e-07,-6.031227135488697e-07,5.77662483805896e-07,2.284773586819537e-06,-3.678574236012323e-07
0.06547238195970985,-2.5460229742973737e-08,0.0007730191107087448,69.37517309799648,69.37574825177055,-0.07089431166902287,0.00031683845351962556,-2.1201685938524415,0.006343917764724844,73.61551487235872,5.623081039136115e-06,4.853329616088525e-07,0.0002852835583559155,3.6441734375008716e-06,73.61608085281807,0.608,2.0,0.000417364049358954,-2.427360344248177e-07,2.995629268735957,0.0004173640492100006,-2.429920121891433e-07,0.0008741462528085754,-22.89525146614783,-3.7126624474408763e-07,-6.133201093013101e-07,5.878598795583363e-07,2.2933286723691124e-06,-3.5316602246273564e-07
0.065495010202099,-2.5460229742973737e-08,0.0007622929994228864,69.37952720110263,69.38011318607022,-0.07073125310494427,0.000197869471058756,-2.116644143540277,0.00509558013699238,73.61282010242562,5.734858436140608e-06,4.7162136316788813e-07,0.0002906853625691208,3.470819398922518e-06,73.61339685890832,0.64,2.0,0.0003351910970229659,-2.31616436549569e-07,2.996464337126696,0.00033519109687851767,-2.318253851454035e-07,0.0007071325746608494,-22.89524074003273,-3.7868465706874054e-07,-6.233715565100065e-07,5.979113267670327e-07,2.307121223271764e-06,-3.42258161980444e-07
0.06551337927310351,-2.5460229742973737e-08,0.0007536680509003675,69.38302883056365,69.38362528568668,-0.07060011855518762,0.0001028274415608036,-2.113802774530382,0.004097954683686255,73.61063903004462,5.8421845448220366e-06,4.6117318361096005e-07,0.00029590235141604347,3.331950991330696e-06,73.61122618432724,0.672,2.0,0.00026952975676577126,-2.227481732054558e-07,2.997129832655545,0.0002695297566246424,-2.2291887655624928e-07,0.0005740334688910005,-22.895232115080518,-3.858180611185405e-07,-6.333376799894866e-07,6.078774502465128e-07,2.325210103970799e-06,-3.343851688208402e-07
0.0655283567341492,-2.5460229742973737e-08,0.000746721533897357,69.38584972766583,69.38645636406102,-0.07049448751455947,2.6929567466848494e-05,-2.1115067258481934,0.003300970021124008,73.60886787303954,5.94594657586246e-06,4.533367255699785e-07,0.0003009713589218288,3.220693403135796e-06,73.60946512208005,0.704,2.0,0.00021707876854405096,-2.1568139124500076e-07,2.9976597717116116,0.00021707876840526552,-2.1582103065696051e-07,0.0004680456576777216,-22.89522516855993,-3.9272433409956325e-07,-6.432660961777115e-07,6.178058664347378e-07,2.3468386735181742e-06,-3.289473828093072e-07
0.06554063618452906,-2.5460229742973737e-08,0.0007411152728634745,69.38812724171991,69.38874382825712,-0.07040922258432829,-3.365242915126385e-05,-2.109645800889617,0.0026645290693829734,73.6074235862951,6.046854776774522e-06,4.4759055173392164e-07,0.00030592187064031105,3.1315412498510547e-06,73.60803068724043,0.736,2.0,0.00017519576692006563,-2.1005615256110886e-07,2.9980813358781466,0.00017519576678282078,-2.101705894349627e-07,0.0003837328243706979,-22.89521956229539,-3.9944979296148206e-07,-6.531942860860552e-07,6.277340563430815e-07,2.3713979668281093e-06,-3.254638651992432e-07
0.06555077218651864,-2.5460229742973737e-08,0.0007365787528725475,69.38997122123277,69.390597573039,-0.07034021349189004,-8.198193413801646e-05,-2.1081318525532424,0.002156534137596931,73.60623972313624,6.145477895378798e-06,4.4351802092659084e-07,0.0003107775046192233,3.060091829356789e-06,73.6068564813485,0.768,2.0,0.00014176635734533736,-2.0558484013991743e-07,2.998416249689128,0.00014176635720897224,-2.0567885275717465e-07,0.000316750062174468,-22.89521502577196,-4.0603151624971165e-07,-6.631518158670279e-07,6.376915861240541e-07,2.3983984942670843e-06,-3.235491572632814e-07
0.06555920816198589,-2.5460229742973737e-08,0.0007328955910803428,69.39146952259753,69.39210549182258,-0.07028417197399507,-0.00012050983577247871,-2.1068943716231807,0.0017512974324441922,73.60526312073611,6.242271287835883e-06,4.4078540455083884e-07,0.0003155571664106182,3.0028166142732166e-06,73.60588938017673,0.8,2.0,0.00011509891220398664,-2.0203707992328695e-07,2.998681878833242,0.00011509891206795686,-2.021145601414395e-07,0.00026362423335155385,-22.895211342606775,-4.124991821742377e-07,-6.731620370226084e-07,6.477018072796346e-07,2.427446102988051e-06,-3.2289378743276446e-07
0.06556629868177322,-2.5460229742973737e-08,0.0007298927087458917,69.39269241421806,69.39333788267174,-0.07023846751415108,-0.0001511967824829306,-2.1058769578383276,0.0014282643686876876,73.60445124634282,6.337599651024542e-06,4.3912603882841174e-07,0.00032027600279226694,2.9568942022114516e-06,73.60508688190032,0.832,2.0,9.384017820871205e-05,-1.9922878022340485e-07,2.9988921062832303,9.384017807256839e-05,-1.9929289590778173e-07,0.0002215787433539236,-22.895208339721076,-4.1887655484328673e-07,-6.832434213924406e-07,6.577831916494668e-07,2.458224038802257e-06,-3.2324964256923744e-07
0.0655723272788673,-2.5460229742973737e-08,0.0007274316669515256,69.39369609824298,69.394350971468,-0.07020099584527947,-0.00017561114050458713,-2.1050344968485555,0.0011709896503332633,73.60377007289425,6.431754961306799e-06,4.383260797381718e-07,0.0003249461354322019,2.92006128712382e-06,73.60441498421098,0.864,2.0,7.690766082098443e-05,-1.9701232341955275e-07,2.999058031704049,7.69076606843555e-05,-1.9706565200576438e-07,0.0001883936591902391,-22.895205878675934,-4.251826557074712e-07,-6.934105873163802e-07,6.679503575734065e-07,2.4904770673490323e-06,-3.2441732975254196e-07
0.06557752068667752,-2.5460229742973737e-08,0.000725401734981482,69.39452552668635,69.39518972924282,-0.07017007371082669,-0.00019500743959636945,-2.104330902065068,0.0009663166993288956,73.60319237881683,6.5249710839136475e-06,4.382147402017155e-07,0.00032957727807223115,2.89050913634708e-06,73.60384648537263,0.896,2.0,6.343547867413304e-05,-1.9526980360616357e-07,2.9991885300296537,6.343547853671083e-05,-1.9531444157404835e-07,0.0001622939940692722,-22.89520384874062,-4.3143271783784074e-07,-7.036751178694638e-07,6.782148881264901e-07,2.5240001717180618e-06,-3.2623700489239434e-07
0.06558206022125042,-2.5460229742973737e-08,0.0007237143452110185,69.3952166537044,69.39589012536219,-0.070144354653119,-0.00021038914767440014,-2.103737308189688,0.0008037205515562038,73.6026963873398,6.617435217160791e-06,4.3865487795852497e-07,0.000334177200878716,2.866785142717955e-06,73.60335962448555,0.928,2.0,5.27310351214052e-05,-1.9390655333779318e-07,2.999290697722985,5.273103498293352e-05,-1.9394420573238186e-07,0.00014186045540305267,-22.895202161347502,-4.3763893242127696e-07,-7.140461883864989e-07,6.885859586435252e-07,2.5586280049942798e-06,-3.2858008604246964e-07
0.06558609088120762,-2.5460229742973737e-08,0.00072229865761107,69.39579823674251,69.39648092946288,-0.07012276163717024,-0.0002225589098408542,-2.1032306262789833,0.0006747817459649121,73.60226467775624,6.709297309187108e-06,4.3953709083321626e-07,0.0003387521323082045,2.8477297580159094e-06,73.6029369935651,0.96,2.0,4.4240342751258714e-05,-1.928470436650371e-07,2.999370209381687,4.424034261152343e-05,-1.9287909716810414e-07,0.00012595812366256523,-22.89520074565654,-4.438110635306563e-07,-7.245310755821022e-07,6.990708458391285e-07,2.594227874083961e-06,-3.313435577110504e-07
0.06558972862352636,-2.5460229742973737e-08,0.0007210980117811754,69.39629327719946,69.39698515268678,-0.07010443314689113,-0.00023215873208486156,-2.1027923878195813,0.0005727653192374403,73.60188331422385,6.8006773471842755e-06,4.407733739065753e-07,0.000343307051032758,2.83241029963767e-06,73.6025646669407,0.992,2.0,3.7520288128825445e-05,-1.92030529305908e-07,2.9994316027626975,3.752028798764684e-05,-1.9205811180328467e-07,0.00011367944746046993,-22.895199545007323,-4.499569231083614e-07,-7.351355441046393e-07,7.096753143616656e-07,2.630692626397784e-06,-3.344444555418578e-07
0.06559306618118156,-2.5460229742973737e-08,0.0007200670891378948,69.39672017254007,69.39742120031237,-0.07008868006356808,-0.0002397021346963964,-2.1024078201901455,0.0004922838515932366,73.60154114879317,6.8916714483840754e-06,4.4229366574187013e-07,0.0003478459497529477,2.8200836680020375e-06,73.60223150481987,1.024,2.0,3.221643943684873e-05,-1.914086404277422e-07,2.999478506616374,3.221643929407492e-05,-1.9143266951545841e-07,0.00010429867672518203,-22.895198514081265,-4.5608276853285607e-07,-7.458641671618419e-07,7.204039374188682e-07,2.6679363987948e-06,-3.378163910254634e-07
0.06559617771504467,-2.5460229742973737e-08,0.0007191696429511952,69.39709363790688,69.39780379371946,-0.07007495116967602,-0.00024559986215534087,-2.1020651070207244,0.00042902793171155286,73.60122926372777,6.9823564864913945e-06,4.440414625127619e-07,0.0003523720165582956,2.810150771213055e-06,73.60192859598145,1.056,2.0,2.8045301225967686e-05,-1.9094237868787303e-07,2.99951382283389,2.804530108146963e-05,-1.9096360114401047e-07,9.723543322208081e-05,-22.89519761663163,-4.621936037694644e-07,-7.567205650995669e-07,7.312603353565931e-07,2.705889724329358e-06,-3.4140581217305236e-07
0.06559912253378512,-2.5460229742973737e-08,0.0007183766827729087,69.39742544310774,69.39814470772232,-0.07006280555510387,-0.00025018045653153634,-2.101754796656771,0.00037955045287688653,73.60094052541542,7.07279405085451e-06,4.459719301626536e-07,0.00035688781023142423,2.802135758536104e-06,73.60164881204174,1.088,2.0,2.478011466223177e-05,-1.906007899673647e-07,2.999539872071804,2.4780114515898788e-05,-1.9061981384990132e-07,9.202558563922367e-05,-22.895196823667966,-4.6829343781266124e-07,-7.677076095938881e-07,7.422473798509144e-07,2.7444970687273833e-06,-3.451699527830935e-07
0.06560194806854616,-2.5460229742973737e-08,0.0007176650221798747,69.39772500221798,69.39845336038593,-0.07005189054333527,-0.00025370670695910104,-2.101469328891637,0.00034109411537986567,73.600669227428,7.163033364420279e-06,4.480487669965609e-07,0.0003613953706037746,2.7956536157640235e-06,73.60138645074247,1.12,2.0,2.223950394236045e-05,-1.903588223540774e-07,2.9995585101935878,2.2239503794097004e-05,-1.903761430928404e-07,8.829796128246789e-05,-22.895196112003845,-4.7438547439163214e-07,-7.788275703278005e-07,7.533673405848268e-07,2.7837133706584687e-06,-3.4907423260265885e-07
0.06560469225176782,-2.5460229742973737e-08,0.0007170161172178722,69.39799984502756,69.39873728470721,-0.07004192403541822,-0.0002563888116138054,-2.101202656504234,0.00031145336992626665,73.60041080504149,7.253113875205655e-06,4.5024331925350204e-07,0.0003658963370810171,2.790400001480875e-06,73.60113695071018,1.152,2.0,2.0278391893844075e-05,-1.9019669153461976e-07,2.9995712213716157,2.0278391743566715e-05,-1.9021271313198558e-07,8.575572567684486e-05,-22.89519546309531,-4.804722812118557e-07,-7.900822466124203e-07,7.646220168694466e-07,2.8235027367423557e-06,-3.530911240893439e-07
0.06560738541951266,-2.5460229742973737e-08,0.0007164151372569488,69.39825599425888,69.39900250595744,-0.07003268038588847,-0.0002583949003406421,-2.1009499424317086,0.0002888640452864156,73.6001616067941,7.343067077340553e-06,4.525322409917414e-07,0.0003703920133764788,2.78612726845939e-06,73.60089666314906,1.184,2.0,1.878073711796037e-05,-1.900982893197879e-07,2.9995791925398683,1.878073696559568e-05,-1.9011334157450962e-07,8.41614920263703e-05,-22.895194862111726,-4.8655590814224e-07,-8.014730565807684e-07,7.760128268377947e-07,2.863835909008521e-06,-3.5719828566342465e-07
0.06561005183278931,-2.5460229742973737e-08,0.0007158502218774935,69.39849826714256,69.39925384342125,-0.07002397910599686,-0.00025985945759945657,-2.100707317643623,0.00027191499388277355,73.59991871180922,7.432918225131113e-06,4.5489725584957026e-07,0.00037488344964338053,2.7826411309752947e-06,73.60066266932908,1.216,2.0,1.765372052895064e-05,-1.9005099503269846e-07,2.9995833729255237,1.7653720374433135e-05,-1.9006534752725659e-07,8.332541489523143e-05,-22.895194297192674,-4.926379992631122e-07,-8.130011233267029e-07,7.875408935837291e-07,2.9046897115971667e-06,-3.6137802056398624e-07
0.065612710894165,-2.5460229742973737e-08,0.0007153118864089307,69.398730516767,69.39949515181435,-0.0700156758265509,-0.00026089005277316914,-2.100471687369371,0.000259477479929072,73.59967978359605,7.522687457349141e-06,4.5732335024049346e-07,0.0003793714785262323,2.7797823085347254e-06,73.60043263446282,1.248,2.0,1.6823099958839333e-05,-1.9004445163826193e-07,2.9995845216600494,1.6823099802110164e-05,-1.9005832509909577e-07,8.30956679901372e-05,-22.89519375885348,-4.987198656662833e-07,-8.246673283988779e-07,7.992070986559041e-07,2.946045138677044e-06,-3.6561589513955434e-07
0.06561537812073252,-2.5460229742973737e-08,0.0007147925464843218,69.3989558250027,69.39972951431622,-0.07000765506999912,-0.00026157272886029033,-2.10024057618936,0.0002506486394741329,73.59944295315569,7.612390900088063e-06,4.597987713417822e-07,0.0003838567696315838,2.7774258558388724e-06,73.60020469092069,1.28,2.0,1.6229490910301633e-05,-1.9007054524435638e-07,2.999583245848824,1.6229490751307196e-05,-1.9008412076495882e-07,8.33508302352029e-05,-22.895193239509776,-5.048025575307619e-07,-8.364723665074538e-07,8.110121367644801e-07,2.9878871288746705e-06,-3.6990047905415356e-07
0.06561806592221446,-2.5460229742973737e-08,0.0007142861377472832,69.39917665687729,69.39995939700277,-0.06999982446861017,-0.0002619763106231588,-2.100012004078428,0.00024470629050009856,73.59920672544125,7.702041466693376e-06,4.62314112202709e-07,0.00038833985918073835,2.7754717338668766e-06,73.5999773447525,1.312,2.0,1.5825393046336212e-05,-1.901227813431326e-07,2.9995800310184473,1.5825392885027156e-05,-1.901362078721364e-07,8.39937963105497e-05,-22.895192733097204,-5.108869161826703e-07,-8.484167838934573e-07,8.229565541504836e-07,3.030203552790492e-06,-3.742225935593608e-07
0.06562078422323328,-2.5460229742973737e-08,0.0007137878116189404,69.39939498406702,69.40018677237583,-0.06999211013938535,-0.0002621558482094188,-2.0997843872443895,0.0002410727853797795,73.59896990452461,7.791649419868176e-06,4.648615901989864e-07,0.000392821169990311,2.773837406703177e-06,73.59974940089577,1.344,2.0,1.557281331379148e-05,-1.9019579414015924e-07,2.9995752654658094,1.5572813150122045e-05,-1.9020919456158284e-07,8.494690683811743e-05,-22.895192234767183,-5.16973610408641e-07,-8.605010041534977e-07,8.35040774410524e-07,3.07298440754236e-06,-3.78574722873859e-07
0.06562354096097629,-2.5460229742973737e-08,0.0007132936920152398,69.39961238358349,69.40041321812133,-0.06998445298532446,-0.00026215537688686105,-2.0995564588752447,0.0002392860613762036,73.59873153377795,7.881223020645086e-06,4.6743536265413185e-07,0.00039730104693777894,2.772460542870512e-06,73.59951990342783,1.376,2.0,1.544136124474479e-05,-1.9028554562889163e-07,2.999569259727654,1.544136107867189e-05,-1.9029902169638141e-07,8.61480544691283e-05,-22.89519174064363,-5.230631791029252e-07,-8.727253607148905e-07,8.472651309719168e-07,3.11622198352146e-06,-3.8295106040380634e-07
0.0656263424831817,-2.5460229742973737e-08,0.0007128006807079998,69.39983011683248,69.40063999616748,-0.06997680573590699,-0.000262010119363882,-2.099327205655432,0.00023897654114159034,73.59849084796272,7.970768802390068e-06,4.7003035071930465e-07,0.00040177975781555196,2.771287345329284e-06,73.59928808765895,1.408,2.0,1.5406728839136475e-05,-1.9038853690558787e-07,2.9995622621554063,1.540672867061943e-05,-1.9040217324880318e-07,8.754756891877005e-05,-22.89519124762831,-5.291560486468869e-07,-8.850901078526786e-07,8.596298781097049e-07,3.1599096980370478e-06,-3.8734670913862177e-07
0.06562919386644032,-2.5460229742973737e-08,0.0007123063016663428,69.40004919271516,69.40086811584783,-0.06996913058086042,-0.0002617482507310994,-2.0990958170843435,0.00023984859220003464,73.59824723496908,8.060292042470186e-06,4.7264289759180054e-07,0.00040625752372218014,2.7702787010790588e-06,73.5990533419313,1.44,2.0,1.544947242806766e-05,-1.9050223870082096e-07,2.9995544713658386,1.5449472257067498e-05,-1.905161060768173e-07,8.910572683222887e-05,-22.8951907532452,-5.35252564041345e-07,-8.97595444611953e-07,8.721352148689793e-07,3.2040426103988915e-06,-3.917579771946357e-07
0.06563209917073905,-2.5460229742973737e-08,0.000711808576516331,69.40027041823537,69.40109838449503,-0.06996139727639863,-0.0002613923073117219,-2.0988616448381188,0.0002416657611517046,73.59800020514434,8.149796887716211e-06,4.7526967478902387e-07,0.0004107345134674476,2.769399406848045e-06,73.59881517693854,1.472,2.0,1.55540402294524e-05,-1.906243601916542e-07,2.9995460462033248,1.555404005593175e-05,-1.9063851812477504e-07,9.079075933508124e-05,-22.895190255515917,-5.413529966213378e-07,-9.102415186640634e-07,8.847812889210896e-07,3.2486163657967773e-06,-3.96181666022339e-07
0.06563506164304644,-2.5460229742973737e-08,0.0007113059249726344,69.40049443884014,69.40133144783375,-0.06995358163153678,-0.0002609603173978534,-2.0986241703650297,0.00024423889847150285,73.59774936682582,8.239286706765129e-06,4.779084257222494e-07,0.0004152108689919695,2.768625227990719e-06,73.59857320130818,1.504,2.0,1.5707991972254105e-05,-1.9075333850087035e-07,2.9995371137019693,1.5707991796176657e-05,-1.9076783742418568e-07,9.257725960614901e-05,-22.89518975286018,-5.474575674189118e-07,-9.230284445149064e-07,8.975682147719327e-07,3.2936278150427022e-06,-4.006154471512696e-07
0.06563808388011305,-2.5460229742973737e-08,0.0007107970851369596,69.4007217708237,69.40156782236342,-0.06994566429627301,-0.00026046670062493583,-2.0983829788647856,0.00024741672402937045,73.59749440670136,8.32876412019391e-06,4.805569427072812e-07,0.0004196866958236847,2.767932871281884e-06,73.59832710194492,1.536,2.0,1.59013780597696e-05,-1.9088765631431093e-07,2.9995277754583425,1.590137788110013e-05,-1.9090253930924585e-07,9.444490833149244e-05,-22.895189244016088,-5.535664486768076e-07,-9.359563028179128e-07,9.104960730749391e-07,3.3390740437166863e-06,-4.0505721632791283e-07
0.06564116707070487,-2.5460229742973737e-08,0.0007102806951304883,69.40095327288401,69.40180844902434,-0.06993762438442593,-0.0002599062246475958,-2.098137390515849,0.00025124724157671785,73.59723482710334,8.41869911871111e-06,4.846646168337716e-07,0.0004242014763448316,2.781855792442337e-06,73.5980764568684,1.568,2.0,1.6137323548684404e-05,-1.9198534737955715e-07,2.999518251470028,1.613732336647189e-05,-1.9200066263683197e-07,9.634970599440781e-05,-22.89518872762174,-5.597104698811862e-07,-9.490580835854055e-07,9.235978538424317e-07,3.386593812789989e-06,-4.1053350084179574e-07
0.06564431391948577,-2.5460229742973737e-08,0.0007097563688949998,69.40118844420563,69.40205269545139,-0.06992945587886575,-0.00025932447879722334,-2.097887735049471,0.00025526579529856704,73.5969707797335,8.508542492082066e-06,4.870833339166698e-07,0.0004286929084180144,2.7787004799944454e-06,73.5978213001214,1.6,2.0,1.6385332608934064e-05,-1.9195728275403272e-07,2.999508304877984,1.6385332424206922e-05,-1.919730502794529e-07,9.833902440319411e-05,-22.895188203291102,-5.658536074901287e-07,-9.622951138905677e-07,9.36834884147594e-07,3.432714470705867e-06,-4.1480654550872297e-07
0.06564752572594511,-2.5460229742973737e-08,0.0007092234538266641,69.4014279247115,69.40230124582652,-0.06992114869348787,-0.0002587087065255194,-2.097633569971718,0.000259599539443826,73.59670202326342,8.598311985008926e-06,4.895567625546139e-07,0.0004331812532707119,2.7760972577109665e-06,73.59756142716148,1.632,2.0,1.6653735578028628e-05,-1.9196559757620132e-07,2.999498155240729,1.66537353907259e-05,-1.9198184610239212e-07,0.00010036895185415104,-22.89518767037157,-5.719970265654053e-07,-9.756685643315382e-07,9.502083345885644e-07,3.4793042351503586e-06,-4.191194875897768e-07
0.06565080352669658,-2.5460229742973737e-08,0.0007086814294753722,69.40167192836442,69.40255431532391,-0.06991269475203134,-0.0002580648943634052,-2.097374721788419,0.0002641856668842851,73.59642842465134,8.688022088892974e-06,4.920753089527749e-07,0.00043766712469781434,2.773944944212835e-06,73.59729670619065,1.664,2.0,1.693840264835615e-05,-1.9200364217782745e-07,2.9994878436325823,1.693840245842182e-05,-1.920203972964752e-07,0.00010243127348359346,-22.89518712834269,-5.781416792788925e-07,-9.891793866007176e-07,9.63719156857744e-07,3.5263550435975033e-06,-4.234650486828477e-07
0.06565414815079826,-2.5460229742973737e-08,0.0007081298817271776,69.40192062556154,69.4028120752922,-0.06990408759499428,-0.0002573978611777028,-2.097111052057248,0.0002689736537583925,73.59614987739506,8.777684422798209e-06,4.946304681973242e-07,0.00044215100581760616,2.7721542094984146e-06,73.59702703168766,1.696,2.0,1.7236010811377115e-05,-1.9206554297263735e-07,2.9994774024841133,1.723601061875968e-05,-1.9208282773261234e-07,0.00010451950317735825,-22.89518657679035,-5.842883297663361e-07,-1.0028283377598304e-06,9.773681080168567e-07,3.573859510786505e-06,-4.278367911572901e-07
0.06565756026131632,-2.5460229742973737e-08,0.0007075684814809251,69.40217415262813,69.40307466279864,-0.06989532205546947,-0.0002567114603065984,-2.0968424500181575,0.0002739231062329918,73.59586629628708,8.867308183611456e-06,4.97215035946559e-07,0.0004466332739390512,2.770649722531826e-06,73.59675231921233,1.728,2.0,1.7543903414411955e-05,-1.9214633581687297e-07,2.999466857731553,1.754390321906385e-05,-1.921641712298861e-07,0.0001066284536894134,-22.89518601538545,-5.904375832456924e-07,-1.0166160113362635e-06,9.911557815932898e-07,3.6218113209086107e-06,-4.3222931741916115e-07
0.06566104038856753,-2.5460229742973737e-08,0.0007069969676591989,69.40243261856149,69.40334218744805,-0.06988639400107705,-0.0002560087759348249,-2.0965688271122387,0.00027900169600762504,73.59557761319759,8.956900766508319e-06,4.998236847503555e-07,0.0004511142374609114,2.769375450745089e-06,73.59647250126089,1.76,2.0,1.7859954713432544e-05,-1.922423392683823e-07,2.9994562301169987,1.7859954515309084e-05,-1.92260744717425e-07,0.00010875397660030373,-22.895185443866904,-5.9658992707665e-07,-1.0305428787526708e-06,1.005082649009697e-06,3.670205814472977e-06,-4.366385782959238e-07
0.06566458895668507,-2.5460229742973737e-08,0.0007064151335623578,69.40269611058213,69.40361473692832,-0.06987730012623274,-0.00025529227434325336,-2.0962901124764084,0.0002841835849169207,73.59528377361266,9.04646799785966e-06,5.024517431052753e-07,0.00045559413423990313,2.768282603814902e-06,73.59618752380342,1.792,2.0,1.818246540107476e-05,-1.9235033665396227e-07,2.9994455362316335,1.818246520013389e-05,-1.9236933022641664e-07,0.00011089275367328483,-22.895184862028017,-6.027457456438954e-07,-1.0446093057433158e-06,1.019149076000342e-06,3.7190388522943217e-06,-4.4106108286219713e-07
0.06566820630488718,-2.5460229742973737e-08,0.0007058228160256732,69.4029646984109,69.40389238134873,-0.06986803778731894,-0.00025456393096663415,-2.0960062494636125,0.00028944808692275197,73.59498473395314,9.136014583429049e-06,5.050959049756727e-07,0.00046007316140866413,2.7673363322360493e-06,73.59589734366094,1.824,2.0,1.8510075010042432e-05,-1.9246804114295083e-07,2.9994347893434212,1.8510074806243892e-05,-1.9248763989868884e-07,0.00011304213131573329,-22.895184269705624,-6.089053501206534e-07,-1.0588155820688815e-06,1.0333553523259077e-06,3.768307512638111e-06,-4.454943037735919e-07
0.06567189270446638,-2.5460229742973737e-08,0.0007052198866441278,69.40323843785396,69.40417517680811,-0.06985860486956011,-0.00025382532380598756,-2.09571719273471,0.0002947786758989636,73.59468045934148,9.225544203500808e-06,5.077531113870983e-07,0.0004645514680299893,2.766504743561729e-06,73.59560192625943,1.856,2.0,1.8841697298126498e-05,-1.9259334858247078e-07,2.999424000065749,1.8841697091431797e-05,-1.9261356877457018e-07,0.00011519998685018129,-22.895183666771317,-6.150689843214397e-07,-1.073161928587635e-06,1.0477016988446612e-06,3.818009043532889e-06,-4.4993596466593734e-07
0.06567564837239881,-2.5460229742973737e-08,0.0007046062448801678,69.40351737350515,69.4044631681492,-0.06984899968177964,-0.00025307771893442695,-2.0954229060583685,0.0003001621139548007,73.59437092190517,9.31505985149517e-06,5.104213436670495e-07,0.00046902918039673253,2.765766478306929e-06,73.59530124398269,1.888,2.0,1.917646140638534e-05,-1.927248603001565e-07,2.9994131768855583,1.917646119675709e-05,-1.927457175499011e-07,0.00011736462288830518,-22.89518305312456,-6.212368472830365e-07,-1.0876485195364703e-06,1.0621882897934966e-06,3.868141631593786e-06,-4.54384508142198e-07
0.06567947348220762,-2.5460229742973737e-08,0.0007039818124362031,69.40380154107257,69.40475639126146,-0.06983922087100643,-0.00025232212753207033,-2.0951233604253634,0.000305587832361542,73.59405609933012,9.404563841292077e-06,5.130985694574617e-07,0.00047350639103721894,2.765100403157658e-06,73.59499527470535,1.92,2.0,1.9513672335204357e-05,-1.928611804216133e-07,2.999402326592373,1.951367212260635e-05,-1.928826898641071e-07,0.00011953468152543084,-22.89518242868705,-6.274090933586879e-07,-1.1022754836438142e-06,1.0768152539008405e-06,3.91870340906198e-06,-4.5883843157297244e-07
0.06568336817267276,-2.5460229742973737e-08,0.0007033465288279392,69.40409096907598,69.40505487482483,-0.06982926735540701,-0.0002515593604036741,-2.0948185326644166,0.00031104735819720156,73.59373597379135,9.494058076256338e-06,5.157835902756571e-07,0.00047798318115646816,2.764493753375609e-06,73.59468400076713,1.952,2.0,1.9852773418758358e-05,-1.9300147610312454e-07,2.999391454614823,1.985277320315504e-05,-1.930236525030276e-07,0.00012170907703543121,-22.895181793398308,-6.335858502387848e-07,-1.1170429216956982e-06,1.0915826919527245e-06,3.969693269594737e-06,-4.6329679582437587e-07
0.06568733255477584,-2.5460229742973737e-08,0.0007027003477961334,69.40438568036613,69.4053586418005,-0.06981913826937394,-0.00025079006584523305,-2.0945084042130766,0.0003165339339867611,73.59341053101208,9.583544000329412e-06,5.184750270318201e-07,0.0004824596072851644,2.7639322416619536e-06,73.59436740800685,1.984,2.0,2.0193320123747458e-05,-1.931448021689638e-07,2.9993805652963936,2.019331990510409e-05,-1.9316766001580575e-07,0.0001238869407212649,-22.89518114721207,-6.397672153592906e-07,-1.1319509038432857e-06,1.106490674100312e-06,4.021109908899933e-06,-4.677585910659979e-07
0.06569136671727585,-2.5460229742973737e-08,0.0007020432344821983,69.40468569317865,69.40566771052785,-0.06980883292090007,-0.0002500147643189088,-2.094192960256127,0.00032204213519366754,73.59307975959625,9.673022822916614e-06,5.21172203438531e-07,0.0004869357219257267,2.7634085764574696e-06,73.59404548513474,2.016,2.0,2.0534956179602727e-05,-1.9329068601567e-07,2.999369662109373,2.0534955957884904e-05,-1.9331423959968832e-07,0.0001260675781254196,-22.89518049009348,-6.459532710264806e-07,-1.146999484170504e-06,1.1215392544275302e-06,4.072952671146519e-06,-4.7222327190928525e-07
0.06569547073114733,-2.5460229742973737e-08,0.0007013751631224861,69.40499102213815,69.40598209569677,-0.06979835075619635,-0.00024923387184463047,-2.0938721889151255,0.0003275676426096454,73.59274365040963,9.762495434205965e-06,5.238741564970304e-07,0.0004914115586978023,2.762912831006922e-06,73.5937182230858,2.048,2.0,2.0877397369229278e-05,-1.934384695202303e-07,2.9993587478325816,2.0877397144403176e-05,-1.9346273299531554e-07,0.00012825043348369328,-22.89517982201677,-6.521440784823307e-07,-1.162188695591311e-06,1.1367284658483373e-06,4.125220611493083e-06,-4.766901426320473e-07
0.06569964465315135,-2.5460229742973737e-08,0.0007006961152470734,69.40530167890198,69.40630180903237,-0.06978769133262165,-0.0002484477229273543,-2.0935460807196855,0.0003331069818912601,73.5924021961681,9.851962601865408e-06,5.265805424897402e-07,0.0004958871518335869,2.7624411978268086e-06,73.59338561464502,2.08,2.0,2.122041576384002e-05,-1.9358790949192422e-07,2.999347824686871,2.122041553587195e-05,-1.9361289692525614e-07,0.00013043506262577775,-22.895179142963475,-6.583396911839389e-07,-1.1775185625115454e-06,1.1520583327685716e-06,4.17791336171352e-06,-4.811589089385368e-07
0.06570388852867068,-2.5460229742973737e-08,0.0007000060782018263,69.40561767282952,69.40662685993195,-0.06977685429590202,-0.000247656585120437,-2.093214628069372,0.0003386573928086709,73.59205539102874,9.941424870790146e-06,5.29290686540068e-07,0.0005003625209758067,2.7619867497593757e-06,73.59304765401023,2.112,2.0,2.1563829619925414e-05,-1.937385458970523e-07,2.9993368944501055,2.1563829388782096e-05,-1.9376427131048876e-07,0.00013262110997889695,-22.895178452920934,-6.645401478658746e-07,-1.192989094596889e-06,1.1675288648539152e-06,4.231030226543506e-06,-4.8562908798784e-07
0.06570820239399505,-2.5460229742973737e-08,0.00069930504398667,69.40593901138307,69.40695725589619,-0.06976583936280807,-0.0002468606733824175,-2.092877824903441,0.00034421665418381546,73.59170323033176,1.0030882693998417e-05,5.320043252259838e-07,0.000504837685656896,2.7615466317492053e-06,73.59270433656125,2.144,2.0,2.1907493498269138e-05,-1.9389019457887358e-07,2.9993259585430665,2.1907493263917388e-05,-1.9391667198184404e-07,0.00013480829138667189,-22.89517775188115,-6.707454813692936e-07,-1.2086002953366504e-06,1.1831400655936766e-06,4.284570899241516e-06,-4.901004683069908e-07
0.06571258627814044,-2.5460229742973737e-08,0.0006985930083354375,69.4062657005265,69.40729300292092,-0.06975464630694553,-0.0002460601610332307,-2.0925356663785655,0.00034978299083345243,73.59134571035385,1.0120336448027309e-05,5.347212400084331e-07,0.0005093126621090212,2.761118467647411e-06,73.59235565860784,2.176,2.0,2.2251290714431218e-05,-1.9404270260987343e-07,2.9993150181022825,2.2251290476837937e-05,-1.9406994602564192e-07,0.000136996379543515,-22.895177039839854,-6.769557196421141e-07,-1.224352162918262e-06,1.1988919331752883e-06,4.338535103505307e-06,-4.945728693196277e-07
0.06571704020429904,-2.5460229742973737e-08,0.0006978699699449264,69.40659774505727,69.4076341058163,-0.06974327494696111,-0.0002452551864402381,-2.092188148600938,0.00035535499433564095,73.59098282810385,1.0209786366842158e-05,5.374409943967117e-07,0.000513787457161382,2.7606978248773794e-06,73.59200161717348,2.208,2.0,2.2595128675811146e-05,-1.9419577428774781e-07,2.9993040740377195,2.259512843494349e-05,-1.9422379777587361e-07,0.00013918519245611702,-22.895176316795744,-6.831708811709421e-07,-1.2402446862439212e-06,1.2147844565009475e-06,4.3929223535623765e-06,-4.990459893730226e-07
0.06572156419101485,-2.5460229742973737e-08,0.000697135929899368,69.40693514877285,69.40798056840484,-0.0697317251381595,-0.0002444458619473501,-2.091835268486815,0.0003609315199174665,73.59061458121172,1.0299232694386931e-05,5.401636377959495e-07,0.000518262083373829,2.760285016686408e-06,73.59164220991323,2.24,2.0,2.2938932775421786e-05,-1.9434943760305782e-07,2.999293127075654,2.2938932531246792e-05,-1.943782552761589e-07,0.00014137458486914237,-22.895175582749903,-6.893909853397791e-07,-1.256277854622483e-06,1.2308176248795094e-06,4.447732621277176e-06,-5.035198310924319e-07
0.06572612643412042,-2.5460229742973737e-08,0.000777948832491097,69.40348253984628,69.40453591461109,-0.06971910281608164,-0.0040992853671757085,-2.0952779222860727,0.00039444756355211353,73.59404624846881,1.038877321742566e-05,5.287690206371308e-07,0.000522755357211869,2.7879273199488104e-06,73.59508389513284,2.272,2.0,-0.0025254039569449975,-1.8517201944273724e-07,2.999287149514756,-0.0025254039571764864,-1.8198756255325302e-07,0.00014257009704884624,-22.895256395676533,-6.952145873414832e-07,-1.2609693116938507e-06,1.235509081950877e-06,3.932025196886832e-06,-1.5033196735613398e-07
0.06573064937492265,-2.5460229742973737e-08,0.0012261330912533709,69.3866624220326,69.38772478202293,-0.06970322542023386,-0.021499094483364865,-2.1120996884718837,0.0004961686184970183,73.61086965557479,1.0478251212862487e-05,5.523092943589571e-07,0.0005272516959615158,2.786826024032538e-06,73.61191630236829,2.304,2.0,-0.01400576087493901,-1.9916510087431147e-07,2.9992932904996508,-0.014005760875179796,-1.8144403192307303e-07,0.00014134190006983086,-22.89570458002454,-7.010207963630216e-07,-1.265269992063956e-06,1.2398097623209823e-06,3.9282992109599005e-06,-1.3924661599796904e-07
0.06573490824393366,-2.5460229742973737e-08,0.0022807033510330397,69.34444182077245,69.3737835967275,-0.0696833565462807,-0.050341956200499485,-2.1402218429670476,0.0006208096218731805,73.65674918276629,8.099464468451325e-06,-0.0008950194905608313,-0.0012609500523423473,-0.0007709037852040823,73.62236360660187,2.336,2.0,-0.0329531353356897,0.000591902460199302,2.99933455171703,-0.03295294342264832,0.0006024921231103308,0.00013308965659403205,-22.896759074214064,1.857872714316756e-05,-0.00032135617895659885,0.0003213307187268559,0.01593183802987738,-0.009978563915797873
0.06585388749687528,-2.5460229742973737e-08,0.003899936660676504,69.36119080032002,69.44625414327264,-0.06820999761856664,-0.07743317386535149,-2.0776870199315507,0.046046082490800166,73.644014599692,-0.0001915803096679102,-0.0026587605120573904,-0.021193208278136914,-0.008955432282684016,73.47417842362684,2.368,2.0,-0.05058230589355266,0.0017535334136941562,2.9814094917278724,-0.050579467292699576,0.001833585920705056,0.0037181016544255395,-22.89837761716743,7.725347660572936e-05,-0.0015826628533634028,0.0015826373931336598,0.06372487975445172,-0.03931797838336717
0.06617671543268207,-2.5460229742973737e-08,0.005986787132372143,69.51488052308977,69.6624704341595,-0.06354854723459631,-0.10012128447546331,-1.8608826564055536,0.14569504510779907,73.47287047819182,-0.0004968318293316493,-0.005247958925115173,-0.044317365610606334,-0.01422781521890869,73.14801110467965,2.4,2.0,-0.06515171115597986,0.0034525736249888727,2.949558135030189,-0.0651378922897905,0.0037041489213919497,0.010088372993962216,-22.900462029720703,0.00019578624209027175,-0.0038617814023059185,0.0038617559420761755,0.11811232114547454,-0.07101803554616401
0.06676595808939541,-2.5460229742973737e-08,0.00841652074964103,69.85638902206664,70.1236537033548,-0.05366177330220691,-0.11707391582805379,-1.4179094721778325,0.3090176427164286,73.04385772544923,-0.0005411680544079664,-0.007702609973521674,-0.04219253886938195,-0.0074315261754619565,72.60782288868351,2.432,2.0,-0.07580644031186325,0.0050511757176988055,2.9079308348885404,-0.07576830356703645,0.0055941883647733955,0.01841383302229188,-22.90288661543485,0.0003748002697630204,-0.007164918246484584,0.007164892786254841,0.1758248795134757,-0.10288680076980745
0.06760206555372829,-2.5460229742973737e-08,0.011124047673163544,70.39170455486162,70.85549483718528,-0.03741236046930114,-0.13121382735718656,-0.7457585126745394,0.5078261287616812,72.30600561453441,0.00019186490711831482,-0.0065720326634206745,0.02050312399997267,0.0174819113074776,71.92422782821065,2.464,2.0,-0.08451157887369255,0.004269577933668193,2.8693582086979874,-0.08445961257330659,0.0051971245341028965,0.02612835826040251,-22.905589323037194,0.0005411082548543131,-0.010978644063428224,0.010978618603198481,0.21139201716185946,-0.11897077423484266
0.06881065397026473,-2.5460229742973737e-08,0.014050903719930733,71.12788782839911,71.53841103182415,-0.016399867419138982,-0.14265990887916769,0.02199137019545533,0.6566473016487925,71.5073797530365,0.00011655570027075174,-0.0069376733690247674,-0.006475730801618405,-0.005365842446131225,71.07095362640496,2.496,2.0,-0.09136229351703444,0.004485682313627671,2.811158059916181,-0.09128729092933163,0.005815542734355194,0.03776838801676377,-22.908510516346933,0.0007272056223536793,-0.014561620010859594,0.014561594550629851,0.21173733251414223,-0.11203503257483513
0.07059339390968211,-2.5460229742973737e-08,0.017150921627795617,71.61942023684759,72.20416613825714,0.005387368751868355,-0.15208778412314738,0.6903463030863224,0.6808130246534191,70.65570251051369,0.0011471689504387718,-0.0051132483663184096,0.08388551078538728,0.0316403116297671,70.40649865224572,2.528,2.0,-0.09682090003872318,0.0032539560345837444,2.721446884466034,-0.0967473815324249,0.0049818752295537,0.05571062310679321,-22.91160643255597,0.0008866256296993977,-0.017852855710923494,0.01785283025069375,0.20848743991937607,-0.10328596611152989
0.0731600865313827,-2.5460229742973737e-08,0.020327308218722567,71.95683509813729,72.54282312752018,0.02410244496418221,-0.1569313345925594,1.1508748349694564,0.5847328206365494,70.07994004064624,0.001481620848293605,-0.005423139353427585,0.08056670846751018,0.011908805406257526,69.8162188451334,2.56,2.0,-0.09920293504763747,0.003445603541938952,2.598954277859283,-0.09910862483386573,0.00552946555953223,0.0802091444281434,-22.914777908550654,0.001063568527604429,-0.021015268347889474,0.02101524288765973,0.21242730622393552,-0.09958771837397089
0.07664240971436742,-2.5460229742973737e-08,0.023459799611769753,72.05620867212227,72.58190482074255,0.03710396011168577,-0.15612514093109328,1.363169743773773,0.40617608135429345,69.7605536635264,0.001186758197143976,-0.0055231332877416,0.047505834834309146,-0.006308941735148056,69.42488085424336,2.592,2.0,-0.09783016420472075,0.003498872539072174,2.4558870026586375,-0.09771771092004222,0.005850821302548987,0.1088225994682725,-22.917904875300096,0.0012507948092859967,-0.024053806369160314,0.02405378090893057,0.21534223947582565,-0.09545393116602263
0.08107731207960345,-2.5460229742973737e-08,0.026439485378229037,71.88944061460973,72.3950011918603,0.043182671880222324,-0.1501711309360894,1.335174397803148,0.18986537233256773,69.64891331737314,0.0009387398473457248,-0.004901515666302323,0.0378695394404393,-0.004165937260544626,69.29483089788431,2.624,2.0,-0.09306616150027666,0.0030760854754637063,2.3070465054318707,-0.09294968789741453,0.005579268591954012,0.13859069891362583,-22.920879265312813,0.001429331404228525,-0.02691202974056422,0.026912004280334478,0.214910749184848,-0.08944982422922972
0.0864116400079257,-2.5460229742973737e-08,0.02919223496441386,71.52023124059741,72.03971447657074,0.04250855064236661,-0.14065056793211253,1.1134615973844235,-0.021144353954462205,69.72003376183022,0.0009399853225302486,-0.004222659660786484,0.04637875998582076,0.003602153520094812,69.38606556580021,2.656,2.0,-0.08598489665508001,0.002619920914821792,2.166511261199648,-0.08586982648606245,0.005161330994834297,0.16669774776007037,-22.923627099760367,0.0015944939960632226,-0.029574105367113388,0.029574079906883644,0.2133628580008309,-0.08309374552011999
0.09252394092961458,-2.5460229742973737e-08,0.03168588717579255,71.04895250198932,71.5785529552585,0.03635555391072248,-0.1295092503183415,0.7687997476377939,-0.19235761936553894,69.93579079815227,0.0010188629269833125,-0.003886372297144307,0.05258133091531599,0.005524556863294672,69.61651566854435,2.688,2.0,-0.07789221062246388,0.0023946234728285396,2.0449529809861127,-0.07777543633480377,0.0048900102414800705,0.19100940380277748,-22.92611591372308,0.0017509743237905848,-0.032057696066433786,0.03205767060620404,0.21221889571927938,-0.07736392260044483
0.09925536889754377,-2.5460229742973737e-08,0.03392476140503152,70.56562106278797,71.09130218802368,0.026692225458953115,-0.11846359553118313,0.3802472453947568,-0.30205592284265353,70.22769970181388,0.0010447227567814009,-0.0037738834284676824,0.05155399771014351,0.00309174329954115,69.90823456741875,2.72,2.0,-0.06993126160681269,0.0023194237702377986,1.9482143800110636,-0.0698102288714253,0.004721548630019179,0.21035712399778728,-22.928349841046966,0.0019020638799511986,-0.0343761654967635,0.034376140036533755,0.2112865649077161,-0.0721054298654099
0.10644134779181827,-2.5460229742973737e-08,0.035938342191584316,70.13893177212414,70.65661781006249,0.015730599206751905,-0.10871008831255619,0.02058399332370331,-0.34262389456629766,70.51773892577889,0.0010308041864407823,-0.003677285314671045,0.04885544881809843,0.000992524810730368,70.19547468311295,2.752,2.0,-0.06289184417604836,0.0022552592639434347,1.8771907977696098,-0.0627675206306133,0.0045506716094971845,0.22456184044607805,-22.930358401707146,0.0020476853714551085,-0.03652982152545089,0.036529796065221144,0.20998757015106428,-0.06693212130360056
0.11393770059967455,-2.5460229742973737e-08,0.037769765210009104,69.81761994143883,70.3301824747615,0.005514461410736382,-0.10090681877366207,-0.25479366567229045,-0.3193206892207198,70.74351489400374,0.0010242856379355848,-0.0035424370177929497,0.0481274560511746,0.00045561117218830346,70.42346218488578,2.784,2.0,-0.05720117685811551,0.002165908996551674,1.8286948737724562,-0.05707535211940673,0.004366918384912462,0.23426102524550874,-22.932184812974967,0.0021874267597723073,-0.03851599807624584,0.038515972616016095,0.2081538106101619,-0.06173726184140907
0.12163778702591307,-2.5460229742973737e-08,0.03946671377916398,69.6280244801099,70.13724372310011,-0.0023927446914493813,-0.09528519196340719,-0.414227394295231,-0.24715986158834236,70.86827692521288,0.001034267662768055,-0.0034032629443623667,0.048710793238836855,0.0004006730447964742,70.55390085517803,2.816,2.0,-0.053000812669971475,0.002073749857991425,1.7968614959002305,-0.05287408188547893,0.004209281045332717,0.2406277008199539,-22.933876783595302,0.002322123753222954,-0.040335183501340785,0.04033515804111104,0.20589882825627176,-0.056595569421959084
0.1294799074667605,-2.5460229742973737e-08,0.04107476701551063,69.57116066737703,70.07604400364733,-0.007086061046340342,-0.09176440824666823,-0.45106634560541226,-0.14672010596853377,70.87989189696668,0.001045959132213973,-0.0032758591471527803,0.04914239894573245,0.00012030148218657952,70.57157815647932,2.848,2.0,-0.05022473076055293,0.001989250119037525,1.7746686811175902,-0.050096956952572214,0.004095802741618411,0.24506626377648194,-22.935479886217784,0.0024531894409547434,-0.041989786034463905,0.04198976057423416,0.203299269189411,-0.05155332497780567
0.13744617953750388,-2.5460229742973737e-08,0.04263226890348102,69.62532007010702,70.1243113636666,-0.00835631019197611,-0.0900208187317889,-0.3804542720595382,-0.03974414756846594,70.7868716024617,0.0010506658010775766,-0.0031462083349318368,0.04917415266198918,-0.0002129290569578173,70.48457691955008,2.88,2.0,-0.04864693895613371,0.0019029186245168753,1.7552699889463468,-0.04851824216156597,0.004015712470406017,0.24894600221073063,-22.937032469966955,0.002581692240007736,-0.04348185075903451,0.04348182529880477,0.20032149411779604,-0.04658401214758782
0.14555502464798625,-2.5460229742973737e-08,0.04416622868045054,69.75387534770725,70.24620379083551,-0.006604250264204455,-0.08953402186074558,-0.23295338221575954,0.05470814757111968,70.61361538164856,0.0010510054703124824,-0.0030021572434452983,0.049247586809228465,-0.00030052946295035644,70.31827728575722,2.912,2.0,-0.047913298667280085,0.0018065985002983305,1.7329929514871287,-0.047784265205241816,0.003951200591767023,0.25340140970257424,-22.938561566453522,0.0027081306589442806,-0.04481291046652343,0.044812885006293685,0.19691663475490512,-0.041651986490682705
0.15384958976675445,-2.5460229742973737e-08,0.045689640607838394,69.91461707929456,70.39998961167377,-0.002667153191928906,-0.08965212515011521,-0.04667085470830473,0.12299586619967766,70.39413216542069,0.0010518156992040187,-0.0028467415525129276,0.04959957783485269,-0.0001444655728353077,70.10715794438089,2.944,2.0,-0.047585748868542714,0.001702263950851692,1.7039742001924698,-0.047457194088051935,0.0038879206817207202,0.25920515996150606,-22.94008019666434,0.0028325441207593437,-0.04598493055140852,0.04598490509117878,0.19308668835475606,-0.03675464872081314
0.16238435869280332,-2.5460229742973737e-08,0.047201023604440166,70.06792009097474,70.54592755316104,0.0023977453698917233,-0.08969578764323348,0.1404814667630151,0.15824489330949687,70.16470167043936,0.001054700346107035,-0.0026894115369333104,0.0501314745978146,8.586882939616744e-05,69.88722010664434,2.976,2.0,-0.04721179086424141,0.0015961329101094116,1.6664423553048633,-0.04708466129321742,0.0038125461018322223,0.26671152893902733,-22.941586905825723,0.002954545596017975,-0.04700081725411405,0.047000791793884306,0.18887225649532863,-0.031913254075783805
0.17121212251374052,-2.5460229742973737e-08,0.0486866169126816,70.18275444457177,70.65276298625434,0.007528789723759792,-0.08908376108296692,0.2970968124344886,0.1603168818046618,69.95720109517711,0.0010590279278931613,-0.0025364211224153483,0.05068413310412387,0.0002691578318811465,69.68992908591105,3.008,2.0,-0.04640759642772847,0.00149227202677068,1.6206619029785634,-0.04628304775933234,0.003710979939067368,0.27586761940428733,-22.94306796335402,0.0030732969540681306,-0.047864254902552306,0.04786422944232256,0.18432013773715428,-0.027151632940124393
0.18037328497212088,-2.5460229742973737e-08,0.0501248183240832,70.24026058547123,70.70158672766998,0.011838259035430503,-0.0874398070832036,0.40235529069254644,0.13464732671283497,69.79449274754525,0.0010641132794332612,-0.0023892763122561373,0.05119169936982234,0.0003753117104154166,69.5379334028258,3.04,2.0,-0.044928101871152676,0.0013915838498566825,1.5685683658780685,-0.044807522506573605,0.0035716621031046934,0.2862863268243863,-22.944501804074232,0.003187590141367481,-0.04857935766611867,0.04857933220588893,0.1794713717295527,-0.022488916741257265
0.18988898590879072,-2.5460229742973737e-08,0.05149167833121669,70.23477342500689,70.68679780204954,0.014730169110606157,-0.08464435085044757,0.4476138848828813,0.0903531624151441,69.68827287104318,0.001069687115996181,-0.00224703023182203,0.0516485806202961,0.000411255052309088,69.44284281648171,3.072,2.0,-0.04269997847008116,0.001293349316373186,1.5131717286453372,-0.0425848691421038,0.0033896657577781346,0.29736565427093253,-22.94586451988678,0.003296059445616381,-0.04915045205405305,0.04915042659382331,0.17436360790102873,-0.017941552079705856
0.19975871703482445,-2.5460229742973737e-08,0.052765999620096045,70.17247453074104,70.61464045765352,0.015948624314188028,-0.08081799273104655,0.43570298264005364,0.038062245945459316,69.63913356959976,0.001075434549139211,-0.002107719839067921,0.05205046138683143,0.00038645376893879597,69.40516948823459,3.104,2.0,-0.03980928015738049,0.0011961928993572245,1.4578545115572297,-0.03970107184880778,0.003167737071962159,0.3084290976885541,-22.94713495418594,0.00339742703191917,-0.049581977872065155,0.04958195241183541,0.16903250206941445,-0.01352442988927215
0.20996217539571757,-2.5460229742973737e-08,0.05393291345299669,70.06827010611478,70.50006720721633,0.015561062011975865,-0.07625153323066872,0.37845902555510624,-0.012121301573500954,69.63837141571285,0.0010808466196928494,-0.001968532831138502,0.05238887019664325,0.0003150720431392733,69.41612979539785,3.136,2.0,-0.03645383973322632,0.0010982010373911041,1.40570963111045,-0.03635374933941282,0.002914341397540547,0.31885807377791,-22.948298274164802,0.0034906859566404677,-0.04987842182050136,0.04987839636027162,0.16350968035414198,-0.00924966084888476
0.2204643207829966,-2.5460229742973737e-08,0.05498546403863778,69.94175403815397,70.36273659800783,0.013890735352670163,-0.07131322282675748,0.2932055348432536,-0.05220330291009386,69.67098569889141,0.0010854898509122346,-0.001825998204478921,0.05266991471495272,0.00022142037381991519,69.46068279789738,3.168,2.0,-0.03288101283448014,0.0009970547810644285,1.3590397832376513,-0.032789971284419295,0.0026406261425368687,0.32819204335246976,-22.949347553245904,0.0035751859932016475,-0.05004427303320365,0.050044247572973904,0.15782136521196752,-0.005125748328697203
0.23122216434919585,-2.5460229742973737e-08,0.0559243729314498,69.81311504288016,70.22293178734745,0.011418557395178901,-0.06636334404245484,0.1989364723324303,-0.07725690548048185,69.71922040177381,0.00108925141933524,-0.001676618838028268,0.05291922045438831,0.00013326832565458023,69.52108053912406,3.2,2.0,-0.029330795445877862,0.0008904527967984537,1.3190869427813683,-0.029249437496381425,0.0023577264083290005,0.33618261144372635,-22.950283535245788,0.0036506332382681755,-0.05008402373223022,0.050083998272000475,0.15198915177926128,-0.001158104642173225
0.24219176525742833,-2.5460229742973737e-08,0.056756532969283326,69.69967370347388,70.09807951214327,0.008675884518859691,-0.06169404437340681,0.11287674971990169,-0.08570574147248224,69.76598331064002,0.0010923526699540744,-0.0015175098307658374,0.053171351031725246,7.122736478736282e-05,69.58026290609752,3.232,2.0,-0.025996114137849795,0.0007765337633082415,1.2859998580886742,-0.025924810663990883,0.0020748848136453875,0.34280002838226514,-22.951113129187036,0.003717029552304828,-0.050002211258396434,0.05000218579816669,0.14603155330298032,0.002650002727679852
0.2533341786439111,-2.5460229742973737e-08,0.05749285573578489,69.61349781106766,70.0003440739216,0.006147523135957987,-0.057498164806142435,0.047923034132566794,-0.0790044951400304,69.79758183855888,0.0010952221747160058,-0.0013466664048012856,0.05345808354879274,4.36412177937305e-05,69.62456790990011,3.264,2.0,-0.023002619106980125,0.0006540493556394572,1.2589979083620657,-0.02294153685389322,0.0017983751338023976,0.34820041832758686,-22.95184725836636,0.0037745775565865046,-0.04980347178753837,0.049803446327308626,0.13996504787817454,0.0062968607358342196
0.2646195459833087,-2.5460229742973737e-08,0.058145978623359094,69.56029581505629,69.93550965116992,0.004199225203067261,-0.05386173872554155,0.011241379893994222,-0.06087363747248206,69.80542229207686,0.001098352409462009,-0.0011628795437553293,0.053802299652539846,4.755872319472921e-05,69.64541765457341,3.296,2.0,-0.020404294917338372,0.0005223019963575477,1.2366613532191233,-0.020353470179479416,0.0015311113944327772,0.35266772935617535,-22.952498569412104,0.0038235731212083535,-0.049492579524738955,0.04949255406450921,0.13380461840426705,0.009782029192840396
